city,district,voivodeship,area,population,density,lat,lng
Warszawa,m. st. Warszawa[a],mazowieckie,517.24,1735442,3355,52.2296756,21.012228700000037
Kraków,Kraków[a],małopolskie,326.85,761873,2331,50.06465009999999,19.94497990000002
Łódź,Łódź[a],łódzkie,293.25,706004,2408,51.7592485,19.45598330000007
Wrocław,Wrocław[a],dolnośląskie,292.82,634487,2167,51.1078852,17.03853760000004
Poznań,Poznań[a],wielkopolskie,261.91,545680,2083,52.406374,16.925168100000064
Gdańsk,Gdańsk[a],pomorskie,261.96,461489,1762,54.35202520000001,18.64663840000003
Szczecin,Szczecin[a],zachodniopomorskie,300.55,407180,1355,53.4285438,14.552811600000041
Bydgoszcz,Bydgoszcz[a],kujawsko-pomorskie,175.98,357652,2032,53.12348040000001,18.008437800000024
Lublin,Lublin[a],lubelskie,147.47,341722,2317,51.2464536,22.568446300000005
Katowice,Katowice[a],śląskie,164.64,301834,1833,50.26489189999999,19.02378150000004
Białystok,Białystok[a],podlaskie,102.13,295459,2893,53.13248859999999,23.168840300000056
Gdynia,Gdynia[a],pomorskie,135.14,247820,1834,54.5188898,18.530540900000005
Częstochowa,Częstochowa[a],śląskie,159.71,230123,1441,50.8118195,19.120309399999996
Radom,Radom[a],mazowieckie,111.80,217201,1943,51.40272359999999,21.14713329999995
Sosnowiec,Sosnowiec[a],śląskie,91.06,209274,2298,50.28626380000001,19.104079100000035
Toruń,Toruń[a],kujawsko-pomorskie,115.72,203158,1756,53.0137902,18.59844369999996
Kielce,Kielce[a],świętokrzyskie,109.65,198857,1814,50.8660773,20.628567699999962
Rzeszów,Rzeszów[a],podkarpackie,116.36,185123,1591,50.0411867,21.999119599999972
Gliwice,Gliwice[a],śląskie,133.88,184415,1377,50.29449229999999,18.67138019999993
Zabrze,Zabrze[a],śląskie,80.40,177188,2204,50.3249278,18.785718599999996
Olsztyn,Olsztyn[a],warmińsko-mazurskie,88.33,173831,1968,53.778422,20.48011930000007
Bielsko-Biała,Bielsko-Biała[a],śląskie,124.51,173013,1390,49.8223768,19.05838449999999
Bytom,Bytom[a],śląskie,69.44,172306,2481,50.3483816,18.915717500000028
Ruda Śląska,Ruda Śląska[a],śląskie,77.73,140669,1810,50.2558286,18.855570400000033
Rybnik,Rybnik[a],śląskie,148.36,140052,944,50.1021742,18.5462847
Zielona Góra,Zielona Góra[a],lubuskie,278.32,138512,498,51.9356214,15.506186200000002
Tychy,Tychy[a],śląskie,81.81,128621,1572,50.12180069999999,19.02000220000002
Gorzów Wielkopolski,Gorzów Wielkopolski[a],lubuskie,85.72,124145,1448,52.7325285,15.236930499999971
Dąbrowa Górnicza,Dąbrowa Górnicza[a],śląskie,188.73,123376,654,50.3216897,19.194912599999952
Elbląg,Elbląg[a],warmińsko-mazurskie,79.82,122368,1533,54.1560613,19.4044897
Płock,Płock[a],mazowieckie,88.04,122224,1388,52.5463446,19.706536400000005
Opole,Opole[a],opolskie,96.55,119574,1238,50.6751067,17.921297600000003
Wałbrzych,Wałbrzych[a],dolnośląskie,84.70,116691,1378,50.7840092,16.284355300000016
Włocławek,Włocławek[a],kujawsko-pomorskie,84.32,113939,1351,52.6483303,19.067735699999957
Tarnów,Tarnów[a],małopolskie,72.38,111376,1539,50.0121011,20.98584070000004
Chorzów,Chorzów[a],śląskie,33.24,110337,3319,50.2974884,18.95457280000005
Koszalin,Koszalin[a],zachodniopomorskie,98.34,108605,1104,54.1943219,16.171490800000015
Kalisz,Kalisz[a],wielkopolskie,69.42,103373,1489,51.76727990000001,18.085346200000004
Legnica,Legnica[a],dolnośląskie,56.29,101343,1800,51.2070067,16.155323100000032
Grudziądz,Grudziądz[a],kujawsko-pomorskie,57.76,97176,1682,53.4837486,18.75356499999998
Jaworzno,Jaworzno[a],śląskie,152.59,93331,612,50.204987,19.273931400000038
Słupsk,Słupsk[a],pomorskie,43.15,93206,2160,54.46414799999999,17.02848240000003
Jastrzębie-Zdrój,Jastrzębie-Zdrój[a],śląskie,85.33,90794,1064,49.9454207,18.610110299999974
Nowy Sącz,Nowy Sącz[a],małopolskie,57.58,83853,1456,49.6174535,20.71533260000001
Jelenia Góra,Jelenia Góra[a],dolnośląskie,109.22,81408,745,50.9044171,15.719361599999957
Siedlce,Siedlce[a],mazowieckie,31.86,76603,2404,52.1676031,22.290164499999946
Konin,Konin[a],wielkopolskie,82.20,76547,931,52.2230334,18.251072900000054
Piotrków Trybunalski,Piotrków Trybunalski[a],łódzkie,67.24,75608,1124,51.40517209999999,19.703024400000004
Mysłowice,Mysłowice[a],śląskie,65.62,75037,1144,50.2080466,19.166051299999936
Inowrocław,inowrocławski,kujawsko-pomorskie,30.42,74564,2451,52.7993317,18.256203200000073
Piła,pilski,wielkopolskie,102.68,74333,724,53.1509671,16.73822659999996
Lubin,lubiński,dolnośląskie,40.77,73658,1807,51.39772199999999,16.20957880000003
Ostrów Wielkopolski,ostrowski,wielkopolskie,41.90,72754,1736,51.6549856,17.80682580000007
Ostrowiec Świętokrzyski,ostrowiecki,świętokrzyskie,46.43,71728,1545,50.9295234,21.38519150000002
Gniezno,gnieźnieński,wielkopolskie,40.60,69686,1716,52.5349253,17.582657499999982
Suwałki,Suwałki[a],podlaskie,65.51,69316,1058,54.1115218,22.930788099999972
Stargard,stargardzki,zachodniopomorskie,48.08,68922,1433,53.3364746,15.050377099999992
Głogów,głogowski,dolnośląskie,35.11,68836,1961,51.66358520000001,16.084667200000013
Siemianowice Śląskie,Siemianowice Śląskie[a],śląskie,25.50,68634,2692,50.3264314,19.02957140000001
Pabianice,pabianicki,łódzkie,32.99,67207,2037,51.6567303,19.357759999999985
Zamość,Zamość[a],lubelskie,30.34,65055,2144,50.7230879,23.251968600000055
Chełm,Chełm[a],lubelskie,35.28,64855,1838,51.1431232,23.47119859999998
Leszno,Leszno[a],wielkopolskie,31.86,64616,2028,51.8419861,16.593754499999932
Tomaszów Mazowiecki,tomaszowski,łódzkie,41.30,64513,1562,51.5311945,20.008647099999962
Przemyśl,Przemyśl[a],podkarpackie,46.17,63441,1374,49.7838623,22.767790800000057
Stalowa Wola,stalowowolski,podkarpackie,82.52,63291,767,50.5826005,22.053585999999996
Kędzierzyn-Koźle,kędzierzyńsko-kozielski,opolskie,123.71,62840,508,50.3498805,18.226184399999966
Łomża,Łomża[a],podlaskie,32.67,62779,1922,53.1781197,22.059032099999968
Żory,Żory[a],śląskie,64.64,62051,960,50.0447236,18.700640099999987
Tarnowskie Góry,tarnogórski,śląskie,83.72,60879,727,50.4359468,18.846024700000044
Mielec,mielecki,podkarpackie,46.89,60827,1297,50.287063,21.42381009999997
Tczew,tczewski,pomorskie,22.38,60573,2707,54.0919269,18.777307199999996
Ełk,ełcki,warmińsko-mazurskie,21.maj,60103,2855,53.8280529,22.364662899999985
Pruszków,pruszkowski,mazowieckie,19.19,60068,3130,52.1704725,20.811886200000004
Bełchatów,bełchatowski,łódzkie,34.64,59305,1712,51.3687535,19.356424800000013
Świdnica,świdnicki,dolnośląskie,21.76,58802,2702,50.8498434,16.475679000000014
Będzin,będziński,śląskie,37.37,58205,1558,50.3255999,19.12541209999995
Biała Podlaska,Biała Podlaska[a],lubelskie,49.40,57471,1163,52.0387126,23.14450260000001
Zgierz,zgierski,łódzkie,42.33,57390,1356,51.85505759999999,19.406070399999976
Piekary Śląskie,Piekary Śląskie[a],śląskie,39.98,56755,1420,50.3789108,18.92704750000007
Racibórz,raciborski,śląskie,75.01,55710,743,50.0915234,18.219916499999954
Legionowo,legionowski,mazowieckie,13.54,54272,4008,52.4044483,20.949969699999997
Ostrołęka,Ostrołęka[a],mazowieckie,28.63,52611,1838,53.0876544,21.559255399999984
Świętochłowice,Świętochłowice[a],śląskie,13.31,51494,3869,50.2964328,18.917129700000032
Zawiercie,zawierciański,śląskie,85.25,50990,598,50.48774299999999,19.416625899999985
Starachowice,starachowicki,świętokrzyskie,31.82,50679,1593,51.0368289,21.070976900000005
Wejherowo,wejherowski,pomorskie,26.99,50292,1863,54.6003216,18.23304870000004
Puławy,puławski,lubelskie,50.49,48864,968,51.4164431,21.969309000000067
Wodzisław Śląski,wodzisławski,śląskie,49.51,48864,987,50.003137,18.471910200000025
Skierniewice,Skierniewice[a],łódzkie,34.60,48660,1406,51.9547169,20.15833029999999
Starogard Gdański,starogardzki,pomorskie,25.28,48327,1912,53.965614,18.516273599999977
Tarnobrzeg,Tarnobrzeg[a],podkarpackie,85.40,48000,562,50.5729079,21.67906979999998
Rumia,wejherowski,pomorskie,30.paź,47602,1581,54.5707832,18.387822400000005
Radomsko,radomszczański,łódzkie,51.43,47399,922,51.0668544,19.444938699999966
Skarżysko-Kamienna,skarżyski,świętokrzyskie,64.39,47212,733,51.114294,20.84778270000004
Krosno,Krosno[a],podkarpackie,43.50,46934,1088,49.6824761,21.766053100000022
Kołobrzeg,kołobrzeski,zachodniopomorskie,25.67,46720,1820,54.17591729999999,15.583266699999967
Dębica,dębicki,podkarpackie,33.83,46568,1377,50.0516417,21.411696399999983
Piaseczno,piaseczyński,mazowieckie,16.22,45567,2809,52.0811536,21.023860199999945
Kutno,kutnowski,łódzkie,33.59,45371,1351,52.230618,19.364278000000013