[{"id": "67287380-1e3c-11b2-b263-00000000b263", "lat": "54.4095635", "leaflet_link": "eleclerc-20161025-p2", "link": "e-leclerc-gadnsk-ul-obroncow-wybrzeza-1-80-398-gdansk", "lng": "18.5923366", "name": "E.Leclerc Gad\u0144sk", "prods_count": 50, "store_link": "eleclerc", "store_name": "E.Leclerc", "store_photo": "//static.promoceny.pl/foto/retezce/24.gif", "street": "Obro\u0144c\u00f3w Wybrze\u017ca 1, 80-398, Gda\u0144sk"}, {"id": "67c10a00-1e3c-11b2-b264-00000000b264", "lat": "51.203968", "leaflet_link": "eleclerc-20161025-p2", "link": "e-leclerc-olesnica-ul-moniuszki-69-56-400-olesnica", "lng": "17.3854859", "name": "E.Leclerc  Ole\u015bnica", "prods_count": 50, "store_link": "eleclerc", "store_name": "E.Leclerc", "store_photo": "//static.promoceny.pl/foto/retezce/24.gif", "street": "Stanis\u0142awa Moniuszki 69, Ole\u015bnica"}, {"id": "6859a080-1e3c-11b2-b265-00000000b265", "lat": "53.1254", "leaflet_link": "eleclerc-20161025-p2", "link": "e-leclerc-bydgoszcz-m-sklodowskiej-curie-26-85-094-bydgoszcz", "lng": "18.0309", "name": "E.Leclerc Bydgoszcz", "prods_count": 50, "store_link": "eleclerc", "store_name": "E.Leclerc", "store_photo": "//static.promoceny.pl/foto/retezce/24.gif", "street": "M. Sk\u0142odowskiej-Curie 26, Bydgoszcz"}, {"id": "68f23700-1e3c-11b2-b266-00000000b266", "lat": "50.2965028", "leaflet_link": "eleclerc-20161025-p2", "link": "e-leclerc-chorzow-ul-zolnierzy-wrzesnia-22-41-500-chorzow", "lng": "18.9364690559321", "name": "E.Leclerc Chorz\u00f3w", "prods_count": 50, "store_link": "eleclerc", "store_name": "E.Leclerc", "store_photo": "//static.promoceny.pl/foto/retezce/24.gif", "street": "\u017bo\u0142nierzy Wrze\u015bnia 22, 41-500, Chorz\u00f3w"}, {"id": "698acd80-1e3c-11b2-b267-00000000b267", "lat": "50.27598185", "leaflet_link": "eleclerc-20161025-p2", "link": "e-leclerc-gliwice-rybnicka-ul-rybnicka-148-44-100-gliwice", "lng": "18.6604571787991", "name": "E.Leclerc Gliwice Rybnicka", "prods_count": 50, "store_link": "eleclerc", "store_name": "E.Leclerc", "store_photo": "//static.promoceny.pl/foto/retezce/24.gif", "street": "Rybnicka 148, 44-100, Gliwice"}, {"id": "6a236400-1e3c-11b2-b268-00000000b268", "lat": "50.30429655", "leaflet_link": "eleclerc-20161025-p2", "link": "e-leclerc-gliwice-tarnogorska-ul-tarnogorska-19-44-102-gliwice", "lng": "18.6819169483905", "name": "E.Leclerc Gliwice Tarnog\u00f3rska", "prods_count": 50, "store_link": "eleclerc", "store_name": "E.Leclerc", "store_photo": "//static.promoceny.pl/foto/retezce/24.gif", "street": "Tarnog\u00f3rska 19, 44-100, Gliwice"}, {"id": "6abbfa80-1e3c-11b2-b269-00000000b269", "lat": "49.9512", "leaflet_link": "eleclerc-20161025-p2", "link": "e-leclerc-jastrzebie-zdroj-al-pilsudskiego-35-44-335-jastrzebie-zdroj", "lng": "18.6007", "name": "E.Leclerc Jastrz\u0119bie-Zdr\u00f3j", "prods_count": 50, "store_link": "eleclerc", "store_name": "E.Leclerc", "store_photo": "//static.promoceny.pl/foto/retezce/24.gif", "street": "Al.Pi\u0142sudskiego 35, Jastrz\u0119bie-Zdr\u00f3j"}, {"id": "6b549100-1e3c-11b2-b26a-00000000b26a", "lat": "50.3468", "leaflet_link": "eleclerc-20161025-p2", "link": "e-leclerc-kedzierzyn-kozle-ul-jana-pawla-ii-30-47-220-kedzierzyn-kozle", "lng": "18.2152", "name": "E.Leclerc K\u0119dzierzyn-Ko\u017ale", "prods_count": 50, "store_link": "eleclerc", "store_name": "E.Leclerc", "store_photo": "//static.promoceny.pl/foto/retezce/24.gif", "street": "ul. Jana Paw\u0142a II 30, K\u0119dzierzyn-Ko\u017ale"}, {"id": "6bed2780-1e3c-11b2-b26b-00000000b26b", "lat": "50.8826779", "leaflet_link": "eleclerc-20161025-p2", "link": "e-leclerc-kielce-ul-massalskiego-3-25-636-kielce", "lng": "20.5829663", "name": "E.Leclerc Kielce", "prods_count": 50, "store_link": "eleclerc", "store_name": "E.Leclerc", "store_photo": "//static.promoceny.pl/foto/retezce/24.gif", "street": "Edmunda Massalskiego 3, 25-636, Kielce"}, {"id": "6c85be00-1e3c-11b2-b26c-00000000b26c", "lat": "54.176241", "leaflet_link": "eleclerc-20161025-p2", "link": "e-leclerc-kolobrzeg-ul-koszalinska-36-60-246-kolobrzeg", "lng": "15.5962258406592", "name": "E.Leclerc Ko\u0142obrzeg", "prods_count": 50, "store_link": "eleclerc", "store_name": "E.Leclerc", "store_photo": "//static.promoceny.pl/foto/retezce/24.gif", "street": "Koszali\u0144ska 36, 78-100, Ko\u0142obrzeg"}, {"id": "6d1e5480-1e3c-11b2-b26d-00000000b26d", "lat": "52.2285673", "leaflet_link": "eleclerc-20161025-p2", "link": "e-leclerc-konin-ul-przyjazni-4-62-510-konin", "lng": "18.2722488", "name": "E.Leclerc Konin", "prods_count": 50, "store_link": "eleclerc", "store_name": "E.Leclerc", "store_photo": "//static.promoceny.pl/foto/retezce/24.gif", "street": "Przyja\u017ani, 62-503, Konin"}, {"id": "6db6eb00-1e3c-11b2-b26e-00000000b26e", "lat": "54.0348919", "leaflet_link": "eleclerc-20161025-p2", "link": "e-leclerc-malbork-ul-sikorskiego-2-82-200-malbork", "lng": "19.036925220571", "name": "E.Leclerc Malbork", "prods_count": 50, "store_link": "eleclerc", "store_name": "E.Leclerc", "store_photo": "//static.promoceny.pl/foto/retezce/24.gif", "street": "ul. Sikorskiego 2, 82-200 Malbork"}, {"id": "6e4f8180-1e3c-11b2-b26f-00000000b26f", "lat": "53.0732", "leaflet_link": "eleclerc-20161025-p2", "link": "e-leclerc-ostroleka-ul-jana-pawla-ii-4-07-410-ostroleka", "lng": "21.5815", "name": "E.Leclerc Ostro\u0142\u0119ka", "prods_count": 50, "store_link": "eleclerc", "store_name": "E.Leclerc", "store_photo": "//static.promoceny.pl/foto/retezce/24.gif", "street": "ul.Jana Paw\u0142a II 4, Ostro\u0142\u0119ka"}, {"id": "6ee81800-1e3c-11b2-b270-00000000b270", "lat": "50.9454971", "leaflet_link": "eleclerc-20161025-p2", "link": "e-leclerc-ostrowiec-swietokrzyski-ul-11-listopada-6-27-400-ostrowiec-swietokrzyski", "lng": "21.4074841", "name": "E.Leclerc Ostrowiec \u015awi\u0119tokrzyski", "prods_count": 50, "store_link": "eleclerc", "store_name": "E.Leclerc", "store_photo": "//static.promoceny.pl/foto/retezce/24.gif", "street": "11 Listopada 6, 27-400, Ostrowiec \u015awi\u0119tokrzyski"}, {"id": "6f80ae80-1e3c-11b2-b271-00000000b271", "lat": "51.651923", "leaflet_link": "eleclerc-20161025-p2", "link": "e-leclerc-ostrow-wielkopolski-ul-limanowskiego-8-63-400-ostrow-wielkopolski", "lng": "17.8248008", "name": "E.Leclerc Ostr\u00f3w Wielkopolski", "prods_count": 50, "store_link": "eleclerc", "store_name": "E.Leclerc", "store_photo": "//static.promoceny.pl/foto/retezce/24.gif", "street": "ul. Limanowskiego 8, 63-400 Ostr\u00f3w Wielkopolski"}, {"id": "70194500-1e3c-11b2-b272-00000000b272", "lat": "52.388684", "leaflet_link": "eleclerc-20161025-p2", "link": "e-leclerc-poznan-ul-winklera-1-60-246-poznan", "lng": "16.8922757", "name": "E.Leclerc Pozna\u0144", "prods_count": 50, "store_link": "eleclerc", "store_name": "E.Leclerc", "store_photo": "//static.promoceny.pl/foto/retezce/24.gif", "street": "B\u0142a\u017ceja Winklera 1, 60-246, Pozna\u0144"}, {"id": "70b1db80-1e3c-11b2-b273-00000000b273", "lat": "49.7871118", "leaflet_link": "eleclerc-20161025-p2", "link": "e-leclerc-przemysl-ul-sportowa-11-37-700-przemysl", "lng": "22.7757777", "name": "E.Leclerc Przemy\u015bl", "prods_count": 50, "store_link": "eleclerc", "store_name": "E.Leclerc", "store_photo": "//static.promoceny.pl/foto/retezce/24.gif", "street": "Sportowa 11, Przemy\u015bl"}, {"id": "714a7200-1e3c-11b2-b274-00000000b274", "lat": "50.0859292", "leaflet_link": "eleclerc-20161025-p2", "link": "e-leclerc-raciborz-ul-opawska-45-47-400-raciborz", "lng": "18.2122224", "name": "E.Leclerc Racib\u00f3rz", "prods_count": 50, "store_link": "eleclerc", "store_name": "E.Leclerc", "store_photo": "//static.promoceny.pl/foto/retezce/24.gif", "street": "Opawska 45, Racib\u00f3rz"}, {"id": "71e30880-1e3c-11b2-b275-00000000b275", "lat": "54.4579938", "leaflet_link": "eleclerc-20161025-p2", "link": "e-leclerc-slupsk-ul-szczecinska-36k-76-200-slupsk", "lng": "16.990505", "name": "E.Leclerc S\u0142upsk", "prods_count": 50, "store_link": "eleclerc", "store_name": "E.Leclerc", "store_photo": "//static.promoceny.pl/foto/retezce/24.gif", "street": "Szczeci\u0144ska 36k, 76-200, S\u0142upsk"}, {"id": "727b9f00-1e3c-11b2-b276-00000000b276", "lat": "50.29243425", "leaflet_link": "eleclerc-20161025-p2", "link": "e-leclerc-sosnowiec-ul-braci-mieroszewskich-2a-41-200-sosnowiec", "lng": "19.1837835122281", "name": "E.Leclerc Sosnowiec", "prods_count": 50, "store_link": "eleclerc", "store_name": "E.Leclerc", "store_photo": "//static.promoceny.pl/foto/retezce/24.gif", "street": "Braci Mieroszewskich 2a, 41-200, Sosnowiec"}, {"id": "73143580-1e3c-11b2-b277-00000000b277", "lat": "52.09091", "leaflet_link": "eleclerc-20161025-p2", "link": "e-leclerc-srem-ul-kolejowa-1a-63-100-srem", "lng": "17.01554", "name": "E.Leclerc \u015arem", "prods_count": 50, "store_link": "eleclerc", "store_name": "E.Leclerc", "store_photo": "//static.promoceny.pl/foto/retezce/24.gif", "street": "Kolejowa 1a, 63-100, \u015arem"}, {"id": "73accc00-1e3c-11b2-b278-00000000b278", "lat": "53.0255524", "leaflet_link": "eleclerc-20161025-p2", "link": "e-leclerc-torun-ul-lyskowskiego-8-87-100-torun", "lng": "18.664726", "name": "E.Leclerc Toru\u0144", "prods_count": 50, "store_link": "eleclerc", "store_name": "E.Leclerc", "store_photo": "//static.promoceny.pl/foto/retezce/24.gif", "street": "Ignacego \u0141yskowskiego 8, Toru\u0144"}, {"id": "74456280-1e3c-11b2-b279-00000000b279", "lat": "52.2783139", "leaflet_link": "eleclerc-20161025-p2", "link": "e-leclerc-warszawa-bielany-ul-aspekt-79-01-904-warszawa", "lng": "20.9302455", "name": "E.Leclerc Warszawa Bielany", "prods_count": 50, "store_link": "eleclerc", "store_name": "E.Leclerc", "store_photo": "//static.promoceny.pl/foto/retezce/24.gif", "street": "Aspekt 79, 01-904, Warszawa"}, {"id": "74ddf900-1e3c-11b2-b27a-00000000b27a", "lat": "50.0040769", "leaflet_link": "eleclerc-20161025-p2", "link": "e-leclerc-wodzislaw-slaski-ul-kubsza-32-44-300-wodzislaw-slaski", "lng": "18.4713158", "name": "E.Leclerc Wodzis\u0142aw \u015al\u0105ski", "prods_count": 50, "store_link": "eleclerc", "store_name": "E.Leclerc", "store_photo": "//static.promoceny.pl/foto/retezce/24.gif", "street": "ks. p\u0142k. Wilhelma Kubsza 32, 44-300, Wodzis\u0142aw \u015al\u0105ski"}, {"id": "75768f80-1e3c-11b2-b27b-00000000b27b", "lat": "50.7164", "leaflet_link": "eleclerc-20161025-p2", "link": "e-leclerc-zamosc-ul-wyszynskiego-13-22-400-zamosc", "lng": "23.2678", "name": "E.Leclerc Zamo\u015b\u0107", "prods_count": 50, "store_link": "eleclerc", "store_name": "E.Leclerc", "store_photo": "//static.promoceny.pl/foto/retezce/24.gif", "street": "ul. Wyszy\u0144skiego 13, Zamo\u015b\u0107"}, {"id": "760f2600-1e3c-11b2-b27c-00000000b27c", "lat": "51.9307", "leaflet_link": "eleclerc-20161025-p2", "link": "e-leclerc-zielona-gora-ul-wyszynskiego-18-65-536-zielona-gora", "lng": "15.4907", "name": "E.Leclerc Zielona G\u00f3ra", "prods_count": 50, "store_link": "eleclerc", "store_name": "E.Leclerc", "store_photo": "//static.promoceny.pl/foto/retezce/24.gif", "street": "ul. Wyszy\u0144skiego 18, Zielona G\u00f3ra"}, {"id": "8ac1ce80-1de8-11b2-a5b1-0000000025b1", "lat": "51.3661117", "leaflet_link": "eleclerc-20161025-p2", "link": "eleclerc-bechatow-ul-staszica-20-bechatow", "lng": "19.3861263", "name": "E.Leclerc Be\u0142chat\u00f3w", "prods_count": 50, "store_link": "eleclerc", "store_name": "E.Leclerc", "store_photo": "//static.promoceny.pl/foto/retezce/24.gif", "street": "Stanis\u0142awa Staszica, Be\u0142chat\u00f3w"}, {"id": "8b5a6500-1de8-11b2-a5b2-0000000025b2", "lat": "54.1536495", "leaflet_link": "eleclerc-20161025-p2", "link": "eleclerc-elblg-ul-eromskiego-2-elblg", "lng": "19.4198963", "name": "E.Leclerc Elbl\u0105g", "prods_count": 50, "store_link": "eleclerc", "store_name": "E.Leclerc", "store_photo": "//static.promoceny.pl/foto/retezce/24.gif", "street": "Stefana \u017beromskiego 2, 82-300, Elbl\u0105g"}, {"id": "8bf2fb80-1de8-11b2-a5b3-0000000025b3", "lat": "50.2088267", "leaflet_link": "eleclerc-20161025-p2", "link": "eleclerc-katowice-ul-waltera-jankego-15-d-katowice", "lng": "18.9771871", "name": "E.Leclerc Katowice", "prods_count": 50, "store_link": "eleclerc", "store_name": "E.Leclerc", "store_photo": "//static.promoceny.pl/foto/retezce/24.gif", "street": "Genera\u0142a Zygmunta Waltera Jankego, 40-662, Katowice"}, {"id": "8c8b9200-1de8-11b2-a5b4-0000000025b4", "lat": "50.4390881", "leaflet_link": "eleclerc-20161025-p2", "link": "eleclerc-kodzko-ul-dusznicka-1-a-kodzko", "lng": "16.6250208", "name": "E.Leclerc K\u0142odzko", "prods_count": 50, "store_link": "eleclerc", "store_name": "E.Leclerc", "store_photo": "//static.promoceny.pl/foto/retezce/24.gif", "street": "Dusznicka, K\u0142odzko"}, {"id": "8d242880-1de8-11b2-a5b5-0000000025b5", "lat": "51.2512849", "leaflet_link": "eleclerc-20161025-p2", "link": "eleclerc-lublin-ul-turystyczna-1-lublin", "lng": "22.6010201485313", "name": "E.Leclerc Lublin II Turystyczna", "prods_count": 50, "store_link": "eleclerc", "store_name": "E.Leclerc", "store_photo": "//static.promoceny.pl/foto/retezce/24.gif", "street": "Turystyczna 1, 20-204, Lublin"}, {"id": "8dbcbf00-1de8-11b2-a5b6-0000000025b6", "lat": "51.2407231", "leaflet_link": "eleclerc-20161025-p2", "link": "eleclerc-lublin-ul-zana-19-lublin", "lng": "22.5196196", "name": "E.Leclerc Lublin I Zana", "prods_count": 50, "store_link": "eleclerc", "store_name": "E.Leclerc", "store_photo": "//static.promoceny.pl/foto/retezce/24.gif", "street": "Tomasza Zana 19, 20-629, Lublin"}, {"id": "8e555580-1de8-11b2-a5b7-0000000025b7", "lat": "49.4733634", "leaflet_link": "eleclerc-20161025-p2", "link": "eleclerc-nowy-targ-ul-skadowa-2-nowy-targ", "lng": "20.0127131", "name": "E.Leclerc Nowy Targ", "prods_count": 50, "store_link": "eleclerc", "store_name": "E.Leclerc", "store_photo": "//static.promoceny.pl/foto/retezce/24.gif", "street": "Sk\u0142adowa 2, 34-400, Nowy Targ"}, {"id": "8eedec00-1de8-11b2-a5b8-0000000025b8", "lat": "51.3786849", "leaflet_link": "eleclerc-20161025-p2", "link": "eleclerc-radom-ul-toruska-1-radom", "lng": "21.1258639", "name": "E.Leclerc Radom", "prods_count": 50, "store_link": "eleclerc", "store_name": "E.Leclerc", "store_photo": "//static.promoceny.pl/foto/retezce/24.gif", "street": "Toru\u0144ska 1, 26-616, Radom"}, {"id": "8f868280-1de8-11b2-a5b9-0000000025b9", "lat": "50.0189", "leaflet_link": "eleclerc-20161025-p2", "link": "eleclerc-rzeszow-al-rejtana-69-rzeszow", "lng": "22.0196", "name": "E.Leclerc Rzesz\u00f3w", "prods_count": 50, "store_link": "eleclerc", "store_name": "E.Leclerc", "store_photo": "//static.promoceny.pl/foto/retezce/24.gif", "street": "al. Rejtana 69, Rzesz\u00f3w"}, {"id": "901f1900-1de8-11b2-a5ba-0000000025ba", "lat": "50.1271196", "leaflet_link": "eleclerc-20161025-p2", "link": "eleclerc-tychy-ul-budowlanych-75-tychy", "lng": "18.9717088", "name": "E.Leclerc Tychy", "prods_count": 50, "store_link": "eleclerc", "store_name": "E.Leclerc", "store_photo": "//static.promoceny.pl/foto/retezce/24.gif", "street": "Budowlanych 75, 43-100, Tychy"}, {"id": "90b7af80-1de8-11b2-a5bb-0000000025bb", "lat": "52.1630811", "leaflet_link": "eleclerc-20161025-p2", "link": "eleclerc-warszawa-ul-ciszewskiego-15-warszawa", "lng": "21.0611334", "name": "E.Leclerc Warszawa Ursyn\u00f3w", "prods_count": 50, "store_link": "eleclerc", "store_name": "E.Leclerc", "store_photo": "//static.promoceny.pl/foto/retezce/24.gif", "street": "Ciszewskiego, Warszawa"}, {"id": "91504600-1de8-11b2-a5bc-0000000025bc", "lat": "52.1989337", "leaflet_link": "eleclerc-20161025-p2", "link": "eleclerc-warszawa-ul-jutrzenki-156-warszawa", "lng": "20.935842", "name": "E.Leclerc Warszawa", "prods_count": 50, "store_link": "eleclerc", "store_name": "E.Leclerc", "store_photo": "//static.promoceny.pl/foto/retezce/24.gif", "street": "Jutrzenki 156, Warszawa"}, {"id": "91e8dc80-1de8-11b2-a5bd-0000000025bd", "lat": "51.1306961", "leaflet_link": "eleclerc-20161025-p2", "link": "eleclerc-wrocaw-ul-zakadowa-2-4-wrocaw", "lng": "17.0413476", "name": "E.Leclerc Wroc\u0142aw", "prods_count": 50, "store_link": "eleclerc", "store_name": "E.Leclerc", "store_photo": "//static.promoceny.pl/foto/retezce/24.gif", "street": "Zak\u0142adowa 2-4, 50-231, Wroc\u0142aw"}, {"id": "92817300-1de8-11b2-a5be-0000000025be", "lat": "51.7992574", "leaflet_link": "eleclerc-20161025-p2", "link": "eleclerc-od-ul-inflancka-42-od", "lng": "19.4880097", "name": "E.Leclerc \u0141\u00f3d\u017a", "prods_count": 50, "store_link": "eleclerc", "store_name": "E.Leclerc", "store_photo": "//static.promoceny.pl/foto/retezce/24.gif", "street": "Inflancka, 91-725, \u0141\u00f3d\u017a"}, {"id": "a5944300-1de8-11b2-a5de-0000000025de", "lat": "54.4579938", "leaflet_link": "eleclerc-20161025-p2", "link": "e-leclerc-slupsk-ul-szczecinska-36k-slupsk", "lng": "16.990505", "name": "E. Leclerc S\u0142upsk", "prods_count": 50, "store_link": "eleclerc", "store_name": "E.Leclerc", "store_photo": "//static.promoceny.pl/foto/retezce/24.gif", "street": "Szczeci\u0144ska 36k, 76-200, S\u0142upsk"}, {"id": "a62cd980-1de8-11b2-a5df-0000000025df", "lat": "52.2783139", "leaflet_link": "eleclerc-20161025-p2", "link": "e-leclerc-warszawa-bielany-ul-aspekt-79-warszawa", "lng": "20.9302455", "name": "E. Leclerc Warszawa Bielany", "prods_count": 50, "store_link": "eleclerc", "store_name": "E.Leclerc", "store_photo": "//static.promoceny.pl/foto/retezce/24.gif", "street": "Aspekt 79, 01-904, Warszawa"}, {"id": "a6c57000-1de8-11b2-a5e0-0000000025e0", "lat": "51.203968", "leaflet_link": "eleclerc-20161025-p2", "link": "e-leclerc-olesnica-ul-moniuszki-69-olesnica", "lng": "17.3854859", "name": "E. Leclerc Ole\u015bnica", "prods_count": 50, "store_link": "eleclerc", "store_name": "E.Leclerc", "store_photo": "//static.promoceny.pl/foto/retezce/24.gif", "street": "Stanis\u0142awa Moniuszki 69, Ole\u015bnica"}, {"id": "a75e0680-1de8-11b2-a5e1-0000000025e1", "lat": "50.8826779", "leaflet_link": "eleclerc-20161025-p2", "link": "e-leclerc-kielce-ul-massalskiego-3-kielce", "lng": "20.5829663", "name": "E. Leclerc Kielce", "prods_count": 50, "store_link": "eleclerc", "store_name": "E.Leclerc", "store_photo": "//static.promoceny.pl/foto/retezce/24.gif", "street": "Edmunda Massalskiego 3, 25-636, Kielce"}]