[{"id": "7d363400-1e3c-11b2-b288-00000000b288", "lat": "54.58590915", "leaflet_link": "auchan-20161021-p", "link": "auchan-rumia-ul-grunwaldzka-108", "lng": "18.3738324723648", "name": "Auchan Rumia", "prods_count": 112, "store_link": "auchan", "store_name": "Auchan", "store_photo": "//static.promoceny.pl/foto/retezce/11.gif", "street": "Grunwaldzka 108, 84-230, Rumia"}, {"id": "81525980-1e1c-11b2-bcdf-000000007cdf", "lat": "50.2558755", "leaflet_link": "auchan-20161021-p", "link": "auchan-gliwice-ul-rybnicka-207-44-122-gliwice", "lng": "18.6577433", "name": "Auchan Gliwice", "prods_count": 112, "store_link": "auchan", "store_name": "Auchan", "store_photo": "//static.promoceny.pl/foto/retezce/11.gif", "street": "Rybnicka 207, 44-100, Gliwice"}, {"id": "b47df400-1dee-11b2-b008-000000003008", "lat": "50.02886575", "leaflet_link": "auchan-20161021-p", "link": "auchan-krakow-ul-kamienskiego-11-30-644-krakow", "lng": "19.9568939927375", "name": "Auchan Krak\u00f3w", "prods_count": 112, "store_link": "auchan", "store_name": "Auchan", "store_photo": "//static.promoceny.pl/foto/retezce/11.gif", "street": "ul. Kamie\u0144skiego 11, 30-644 Krak\u00f3w"}, {"id": "d58d1780-1de3-11b2-9dcb-000000001dcb", "lat": "53.1618025", "leaflet_link": "auchan-20161021-p", "link": "auchan-biaystok-ul-produkcyjna-84-biaystok", "lng": "23.0987231", "name": "Auchan Bia\u0142ystok", "prods_count": 112, "store_link": "auchan", "store_name": "Auchan", "store_photo": "//static.promoceny.pl/foto/retezce/11.gif", "street": "Produkcyjna 84, 15-680, Bia\u0142ystok"}, {"id": "d625ae00-1de3-11b2-9dcc-000000001dcc", "lat": "51.0534", "leaflet_link": "auchan-20161021-p", "link": "auchan-bielany-wroc-ul-francuska-6-bielany-wroc", "lng": "16.9719", "name": "Auchan Wroc\u0142aw Bielany", "prods_count": 112, "store_link": "auchan", "store_name": "Auchan", "store_photo": "//static.promoceny.pl/foto/retezce/11.gif", "street": "ul. Francuska 6,  Kobierzyce"}, {"id": "d6be4480-1de3-11b2-9dcd-000000001dcd", "lat": "49.83191105", "leaflet_link": "auchan-20161021-p", "link": "auchan-bielsko-biaa-ul-bohaterow-monte-cassino-421-bielsko-biaa", "lng": "18.9840768735594", "name": "Auchan Bielsko-Bia\u0142a", "prods_count": 112, "store_link": "auchan", "store_name": "Auchan", "store_photo": "//static.promoceny.pl/foto/retezce/11.gif", "street": "Bohater\u00f3w Monte Cassino 421, Bielsko-Bia\u0142a"}, {"id": "d756db00-1de3-11b2-9dce-000000001dce", "lat": "53.1371149", "leaflet_link": "auchan-20161021-p", "link": "auchan-bydgoszcz-ul-rejewskiego-3-bydgoszcz", "lng": "18.1159876", "name": "Auchan Bydgoszcz", "prods_count": 112, "store_link": "auchan", "store_name": "Auchan", "store_photo": "//static.promoceny.pl/foto/retezce/11.gif", "street": "Mariana Rejewskiego 3, 85-791, Bydgoszcz"}, {"id": "d7ef7180-1de3-11b2-9dcf-000000001dcf", "lat": "54.3519222", "leaflet_link": "auchan-20161021-p", "link": "auchan-gdask-ul-szczliwa-3-gdask", "lng": "18.5245836", "name": "Auchan Gda\u0144sk", "prods_count": 112, "store_link": "auchan", "store_name": "Auchan", "store_photo": "//static.promoceny.pl/foto/retezce/11.gif", "street": "Szcz\u0119\u015bliwa 3, Gda\u0144sk"}, {"id": "d8880800-1de3-11b2-9dd0-000000001dd0", "lat": "50.2741871", "leaflet_link": "auchan-20161021-p", "link": "auchan-katowice-ul-trasa-rencow-30-katowice", "lng": "18.9666631", "name": "Auchan Katowice", "prods_count": 112, "store_link": "auchan", "store_name": "Auchan", "store_photo": "//static.promoceny.pl/foto/retezce/11.gif", "street": "Trasa Nikodema i J\u00f3zefa Renc\u00f3w 30, 40-878, Katowice"}, {"id": "d9209e80-1de3-11b2-9dd1-000000001dd1", "lat": "51.186305", "leaflet_link": "auchan-20161021-p", "link": "auchan-legnica-ul-schumana-11-legnica", "lng": "16.1697058053192", "name": "Auchan Legnica", "prods_count": 112, "store_link": "auchan", "store_name": "Auchan", "store_photo": "//static.promoceny.pl/foto/retezce/11.gif", "street": "Roberta Schumana 11, 59-220, Legnica"}, {"id": "d9b93500-1de3-11b2-9dd2-000000001dd2", "lat": "50.178037", "leaflet_link": "auchan-20161021-p", "link": "auchan-mikoow-ul-gliwicka-2-mikoow", "lng": "18.8906824", "name": "Auchan Miko\u0142\u00f3w", "prods_count": 112, "store_link": "auchan", "store_name": "Auchan", "store_photo": "//static.promoceny.pl/foto/retezce/11.gif", "street": "Gliwicka, Miko\u0142\u00f3w"}, {"id": "da51cb80-1de3-11b2-9dd3-000000001dd3", "lat": "50.051", "leaflet_link": "auchan-20161021-p", "link": "auchan-nowa-wie-ul-krakowska-10-nowa-wie", "lng": "19.9424", "name": "Auchan Nowa Wie\u015b", "prods_count": 112, "store_link": "auchan", "store_name": "Auchan", "store_photo": "//static.promoceny.pl/foto/retezce/11.gif", "street": "ul. Krakowska 10, Nowa Wie\u015b"}, {"id": "daea6200-1de3-11b2-9dd4-000000001dd4", "lat": "52.0954033", "leaflet_link": "auchan-20161021-p", "link": "auchan-piaseczno-ul-puawska-46-piaseczno", "lng": "21.0236118", "name": "Auchan Piaseczno", "prods_count": 112, "store_link": "auchan", "store_name": "Auchan", "store_photo": "//static.promoceny.pl/foto/retezce/11.gif", "street": "Pu\u0142awska 46, 05-500, Piaseczno"}, {"id": "db82f880-1de3-11b2-9dd5-000000001dd5", "lat": "52.3549766", "leaflet_link": "auchan-20161021-p", "link": "auchan-pozna-ul-gogowska-432-pozna", "lng": "16.8351517", "name": "Auchan Pozna\u0144", "prods_count": 112, "store_link": "auchan", "store_name": "Auchan", "store_photo": "//static.promoceny.pl/foto/retezce/11.gif", "street": "G\u0142ogowska 432, 60-004, Pozna\u0144"}, {"id": "dbb0e180-1e3f-11b2-b82f-00000000b82f", "lat": "53.1354236", "leaflet_link": "auchan-20161021-p", "link": "auchan-bialystok-hetmanska-ul-hetmanska-16-bialystok", "lng": "23.1169554", "name": "Auchan Bia\u0142ystok Hetma\u0144ska", "prods_count": 112, "store_link": "auchan", "store_name": "Auchan", "store_photo": "//static.promoceny.pl/foto/retezce/11.gif", "street": "Hetma\u0144ska 16, 15-727, Bia\u0142ystok"}, {"id": "dc1b8f00-1de3-11b2-9dd6-000000001dd6", "lat": "52.5351329", "leaflet_link": "auchan-20161021-p", "link": "auchan-pock-ul-wyszogrodzka-140-pock", "lng": "19.7498205", "name": "Auchan P\u0142ock", "prods_count": 112, "store_link": "auchan", "store_name": "Auchan", "store_photo": "//static.promoceny.pl/foto/retezce/11.gif", "street": "Wyszogrodzka 140, 09-410, P\u0142ock"}, {"id": "dc497800-1e3f-11b2-b830-00000000b830", "lat": "50.7295", "leaflet_link": "auchan-20161021-p", "link": "auchan-czestochowa-ul-krakowska-10-nowa-wies-poczesna", "lng": "19.1565", "name": "Auchan Cz\u0119stochowa", "prods_count": 112, "store_link": "auchan", "store_name": "Auchan", "store_photo": "//static.promoceny.pl/foto/retezce/11.gif", "street": "ul. Krakowska 10, Nowa Wie\u015b, Poczesna"}, {"id": "dcb42580-1de3-11b2-9dd7-000000001dd7", "lat": "50.0890586", "leaflet_link": "auchan-20161021-p", "link": "auchan-raciborz-ul-rybnicka-97-raciborz", "lng": "18.2600068", "name": "Auchan Racib\u00f3rz", "prods_count": 112, "store_link": "auchan", "store_name": "Auchan", "store_photo": "//static.promoceny.pl/foto/retezce/11.gif", "street": "Rybnicka 97, 47-400, Racib\u00f3rz"}, {"id": "dce20e80-1e3f-11b2-b831-00000000b831", "lat": "50.0916134", "leaflet_link": "auchan-20161021-p", "link": "auchan-krakow-ul-stawowa-61-krakow", "lng": "19.8988942", "name": "Auchan Krak\u00f3w", "prods_count": 112, "store_link": "auchan", "store_name": "Auchan", "store_photo": "//static.promoceny.pl/foto/retezce/11.gif", "street": "Stawowa 61, Krak\u00f3w"}, {"id": "dd4cbc00-1de3-11b2-9dd8-000000001dd8", "lat": "54.58590915", "leaflet_link": "auchan-20161021-p", "link": "auchan-rumia-ul-grunwaldzka-108-rumia", "lng": "18.3738324723648", "name": "Auchan Rumia", "prods_count": 112, "store_link": "auchan", "store_name": "Auchan", "store_photo": "//static.promoceny.pl/foto/retezce/11.gif", "street": "Grunwaldzka 108, 84-230, Rumia"}, {"id": "dd7aa500-1e3f-11b2-b832-00000000b832", "lat": "51.2313", "leaflet_link": "auchan-20161021-p", "link": "auchan-lublin-al-witosa-32a-lublin", "lng": "22.6119", "name": "Auchan Lublin", "prods_count": 112, "store_link": "auchan", "store_name": "Auchan", "store_photo": "//static.promoceny.pl/foto/retezce/11.gif", "street": "Al. Witosa 32a, Lublin"}, {"id": "dde55280-1de3-11b2-9dd9-000000001dd9", "lat": "50.30304005", "leaflet_link": "auchan-20161021-p", "link": "auchan-sosnowiec-ul-zuzanny-20-sosnowiec", "lng": "19.161303288487", "name": "Auchan Sosnowiec", "prods_count": 112, "store_link": "auchan", "store_name": "Auchan", "store_photo": "//static.promoceny.pl/foto/retezce/11.gif", "street": "Zuzanny 20, 41-200, Sosnowiec"}, {"id": "de133b80-1e3f-11b2-b833-00000000b833", "lat": "50.03793685", "leaflet_link": "auchan-20161021-p", "link": "auchan-rzeszow-krasne-20b", "lng": "22.0689423303437", "name": "Auchan Rzesz\u00f3w", "prods_count": 112, "store_link": "auchan", "store_name": "Auchan", "store_photo": "//static.promoceny.pl/foto/retezce/11.gif", "street": "Krasne 20B, 36-007, Krasne"}, {"id": "de7de900-1de3-11b2-9dda-000000001dda", "lat": "52.4401", "leaflet_link": "auchan-20161021-p", "link": "auchan-swadzim-ul-w-antoniego-2-swadzim", "lng": "16.7658", "name": "Auchan Swadzim", "prods_count": 112, "store_link": "auchan", "store_name": "Auchan", "store_photo": "//static.promoceny.pl/foto/retezce/11.gif", "street": "ul. \u015bw. Antoniego 2, Swadzim"}, {"id": "deabd200-1e3f-11b2-b834-00000000b834", "lat": "53.3844022", "leaflet_link": "auchan-20161021-p", "link": "auchan-szczecin-ustowo-45-szczecin", "lng": "14.5059836922377", "name": "Auchan Szczecin", "prods_count": 112, "store_link": "auchan", "store_name": "Auchan", "store_photo": "//static.promoceny.pl/foto/retezce/11.gif", "street": " 45, 70-001, Ustowo"}, {"id": "df167f80-1de3-11b2-9ddb-000000001ddb", "lat": "52.2413646", "leaflet_link": "auchan-20161021-p", "link": "auchan-warszawa-ul-gorczewska-124-warszawa", "lng": "20.9333792", "name": "Auchan Warszawa", "prods_count": 112, "store_link": "auchan", "store_name": "Auchan", "store_photo": "//static.promoceny.pl/foto/retezce/11.gif", "street": "G\u00f3rczewska 124, 01-111, Warszawa"}, {"id": "df446880-1e3f-11b2-b835-00000000b835", "lat": "52.3232583", "leaflet_link": "auchan-20161021-p", "link": "auchan-lomianki-ul-brukowa-25-lomianki", "lng": "20.9014416", "name": "Auchan \u0141omianki", "prods_count": 112, "store_link": "auchan", "store_name": "Auchan", "store_photo": "//static.promoceny.pl/foto/retezce/11.gif", "street": "Brukowa 25, 05-092, \u0141omianki"}, {"id": "dfaf1600-1de3-11b2-9ddc-000000001ddc", "lat": "52.29526635", "leaflet_link": "auchan-20161021-p", "link": "auchan-warszawa-ul-modliska-8-warszawa", "lng": "21.0003508535134", "name": "Auchan Warszawa", "prods_count": 112, "store_link": "auchan", "store_name": "Auchan", "store_photo": "//static.promoceny.pl/foto/retezce/11.gif", "street": "Modli\u0144ska 8, 03-216, Warszawa"}, {"id": "e047ac80-1de3-11b2-9ddd-000000001ddd", "lat": "50.8222", "leaflet_link": "auchan-20161021-p", "link": "auchan-wabrzych-ul-wieniawskiego-19-wabrzych", "lng": "16.29", "name": "Auchan Wa\u0142brzych", "prods_count": 112, "store_link": "auchan", "store_name": "Auchan", "store_photo": "//static.promoceny.pl/foto/retezce/11.gif", "street": "Wieniawskiego 19, 58-316, Wa\u0142brzych"}, {"id": "e0e04300-1de3-11b2-9dde-000000001dde", "lat": "51.9639625", "leaflet_link": "auchan-20161021-p", "link": "auchan-zielona-gora-ul-stefana-batorego-128-zielona-gora", "lng": "15.4899347206748", "name": "Auchan Zielona G\u00f3ra", "prods_count": 112, "store_link": "auchan", "store_name": "Auchan", "store_photo": "//static.promoceny.pl/foto/retezce/11.gif", "street": "Stefana Batorego 128, 65-730, Zielona G\u00f3ra"}, {"id": "e178d980-1de3-11b2-9ddf-000000001ddf", "lat": "50.0395502", "leaflet_link": "auchan-20161021-p", "link": "auchan-ory-ul-francuska-11-ory", "lng": "18.7035852", "name": "Auchan \u017bory", "prods_count": 112, "store_link": "auchan", "store_name": "Auchan", "store_photo": "//static.promoceny.pl/foto/retezce/11.gif", "street": "Francuska 11, \u017bory"}]